#db_name, benchmark, cycle_count, cycle_time_usec, trust_count, trust_time_usecs
ekey_rd_s10_e8,tc,3346,138789,11375,131682
ekey_rd_s10_e8,tc,3346,138537,11375,129184
ekey_rd_s10_e8,tc,3346,138618,11375,129035
ekey_rd_s10_e8,tc,3346,138520,11375,129140
ekey_rd_s10_e8,tc,3346,138908,11375,129036
ekey_rd_s10_e8,tc,3346,138551,11375,129061
ekey_rd_s10_e8,tc,3346,138570,11375,128968
ekey_rd_s10_e8,tc,3346,138543,11375,128969
ekey_rd_s10_e8,tc,3346,138560,11375,128971
ekey_rd_s10_e8,tc,3346,138451,11375,129057
ekey_rd_s10_e8,tc,3346,138369,11375,129105
ekey_rd_s10_e8,tc,3346,138441,11375,129007
ekey_rd_s10_e8,tc,3346,138547,11375,129115
ekey_rd_s10_e8,tc,3346,138550,11375,129112
ekey_rd_s10_e8,tc,3346,138497,11375,129203
ekey_rd_s10_e8,tc,3346,138520,11375,129080
ekey_rd_s10_e8,tc,3346,140289,11375,132835
ekey_rd_s10_e8,tc,3346,140054,11375,130647
ekey_rd_s10_e8,tc,3346,139931,11375,130438
ekey_rd_s10_e8,tc,3346,139976,11375,130412
ekey_rd_s10_e8,tc,3346,140364,11375,130623
ekey_rd_s10_e8,tc,3346,140031,11375,130468
ekey_rd_s10_e8,tc,3346,140050,11375,130503
ekey_rd_s10_e8,tc,3346,140076,11375,130420
ekey_rd_s10_e8,tc,3346,139959,11375,130482
ekey_rd_s10_e8,tc,3346,140015,11375,130497
ekey_rd_s10_e8,tc,3346,139909,11375,130463
ekey_rd_s10_e8,tc,3346,140145,11375,130550
ekey_rd_s10_e8,tc,3346,145077,11375,130340
ekey_rd_s10_e8,tc,3346,190093,11375,130172
ekey_rd_s10_e8,tc,3346,209659,11375,260855
ekey_rd_s10_e8,tc,3346,139548,11375,130124
ekey_rd_s10_e8,tc,3346,140581,11375,132916
ekey_rd_s10_e8,tc,3346,140435,11375,128412
ekey_rd_s10_e8,tc,3346,140465,11375,128214
ekey_rd_s10_e8,tc,3346,140308,11375,128317
ekey_rd_s10_e8,tc,3346,140756,11375,128110
ekey_rd_s10_e8,tc,3346,140297,11375,128248
ekey_rd_s10_e8,tc,3346,140215,11375,128088
ekey_rd_s10_e8,tc,3346,140290,11375,128225
ekey_rd_s10_e8,tc,3346,140412,11375,128158
ekey_rd_s10_e8,tc,3346,140439,11375,128222
ekey_rd_s10_e8,tc,3346,140425,11375,128200
ekey_rd_s10_e8,tc,3346,140473,11375,128150
ekey_rd_s10_e8,tc,3346,140452,11375,128199
ekey_rd_s10_e8,tc,3346,140474,11375,128244
ekey_rd_s10_e8,tc,3346,140450,11375,128313
ekey_rd_s10_e8,tc,3346,140416,11375,128211
ekey_rd_s10_e8,tc,3346,137840,11375,131346
ekey_rd_s10_e8,tc,3346,275932,11375,208029
ekey_rd_s10_e8,tc,3346,137693,11375,161682
ekey_rd_s10_e8,tc,3346,138008,11375,128808
ekey_rd_s10_e8,tc,3346,137675,11375,128849
ekey_rd_s10_e8,tc,3346,137785,11375,128858
ekey_rd_s10_e8,tc,3346,137648,11375,128684
ekey_rd_s10_e8,tc,3346,137711,11375,128773
ekey_rd_s10_e8,tc,3346,137774,11375,128868
ekey_rd_s10_e8,tc,3346,137817,11375,128859
ekey_rd_s10_e8,tc,3346,137747,11375,128835
ekey_rd_s10_e8,tc,3346,137768,11375,128874
ekey_rd_s10_e8,tc,3346,137671,11375,128895
ekey_rd_s10_e8,tc,3346,137707,11375,128939
ekey_rd_s10_e8,tc,3346,137702,11375,128894
ekey_rd_s10_e8,tc,3346,137753,11375,128953
ekey_rd_s10_e8,tc,3346,142298,11375,136660
ekey_rd_s10_e8,tc,3346,256258,11375,257251
ekey_rd_s10_e8,tc,3346,138480,11375,128622
ekey_rd_s10_e8,tc,3346,138323,11375,128685
ekey_rd_s10_e8,tc,3346,138246,11375,128668
ekey_rd_s10_e8,tc,3346,138235,11375,128668
ekey_rd_s10_e8,tc,3346,138330,11375,128797
ekey_rd_s10_e8,tc,3346,138219,11375,128636
ekey_rd_s10_e8,tc,3346,138350,11375,128731
ekey_rd_s10_e8,tc,3346,138192,11375,128742
ekey_rd_s10_e8,tc,3346,138216,11375,128668
ekey_rd_s10_e8,tc,3346,138177,11375,128732
ekey_rd_s10_e8,tc,3346,138244,11375,128684
ekey_rd_s10_e8,tc,3346,138236,11375,128664
ekey_rd_s10_e8,tc,3346,138285,11375,128629
ekey_rd_s10_e8,tc,3346,138123,11375,128683
ekey_rd_s10_e8,tc,3346,139329,11375,133318
ekey_rd_s10_e8,tc,3346,139121,11375,129741
ekey_rd_s10_e8,tc,3346,139181,11375,129623
ekey_rd_s10_e8,tc,3346,139191,11375,129640
ekey_rd_s10_e8,tc,3346,139267,11375,129803
ekey_rd_s10_e8,tc,3346,139046,11375,129754
ekey_rd_s10_e8,tc,3346,139094,11375,129691
ekey_rd_s10_e8,tc,3346,139129,11375,129804
ekey_rd_s10_e8,tc,3346,139204,11375,129699
ekey_rd_s10_e8,tc,3346,139060,11375,129742
ekey_rd_s10_e8,tc,3346,138984,11375,129723
ekey_rd_s10_e8,tc,3346,139205,11375,129800
ekey_rd_s10_e8,tc,3346,139220,11375,129723
ekey_rd_s10_e8,tc,3346,139116,11375,129812
ekey_rd_s10_e8,tc,3346,139182,11375,129689
ekey_rd_s10_e8,tc,3346,139207,11375,129719
ekey_rd_s10_e8,tc,3346,267593,11375,138130
ekey_rd_s10_e8,tc,3346,142747,11375,258339
ekey_rd_s10_e8,tc,3346,142742,11375,132994
ekey_rd_s10_e8,tc,3346,142732,11375,133031
ekey_rd_s10_e8,tc,3346,142772,11375,133092
ekey_rd_s10_e8,tc,3346,142797,11375,132862
ekey_rd_s10_e8,tc,3346,142860,11375,133215
ekey_rd_s10_e8,tc,3346,142854,11375,133101
ekey_rd_s10_e8,tc,3346,142685,11375,132986
ekey_rd_s10_e8,tc,3346,142766,11375,133014
ekey_rd_s10_e8,tc,3346,142478,11375,133122
ekey_rd_s10_e8,tc,3346,142785,11375,133105
ekey_rd_s10_e8,tc,3346,142777,11375,133049
ekey_rd_s10_e8,tc,3346,142799,11375,133017
ekey_rd_s10_e8,tc,3346,142881,11375,132796
ekey_rd_s10_e8,tc,3346,142842,11375,132993
ekey_rd_s10_e8,tc,3346,197367,11375,135380
ekey_rd_s10_e8,tc,3346,204653,11375,265103
ekey_rd_s10_e8,tc,3346,142150,11375,132559
ekey_rd_s10_e8,tc,3346,142375,11375,132444
ekey_rd_s10_e8,tc,3346,142094,11375,132519
ekey_rd_s10_e8,tc,3346,142011,11375,132566
ekey_rd_s10_e8,tc,3346,142139,11375,132401
ekey_rd_s10_e8,tc,3346,142121,11375,132432
ekey_rd_s10_e8,tc,3346,142249,11375,132617
ekey_rd_s10_e8,tc,3346,142061,11375,132412
ekey_rd_s10_e8,tc,3346,142273,11375,132502
ekey_rd_s10_e8,tc,3346,142066,11375,132566
ekey_rd_s10_e8,tc,3346,142174,11375,132448
ekey_rd_s10_e8,tc,3346,142041,11375,132501
ekey_rd_s10_e8,tc,3346,142074,11375,132889
ekey_rd_s10_e8,tc,3346,142111,11375,132457
ekey_rd_s10_e8,tc,0,8974.42,864,9777.64
ekey_rd_s10_e8,tc,0,8154.01,864,8064.47
ekey_rd_s10_e8,tc,0,8146.81,864,8075.12
ekey_rd_s10_e8,tc,0,8167.14,864,8049.22
ekey_rd_s10_e8,tc,0,8183.09,864,8042.46
ekey_rd_s10_e8,tc,0,8189.72,864,8068.41
ekey_rd_s10_e8,tc,0,8189.94,864,8046.84
ekey_rd_s10_e8,tc,0,8174.38,864,8065.18
ekey_rd_s10_e8,tc,0,8148.51,864,8068.16
ekey_rd_s10_e8,tc,0,8157.92,864,8066.61
ekey_rd_s10_e8,tc,0,8202.54,864,8042.65
ekey_rd_s10_e8,tc,0,8216.96,864,8058.59
ekey_rd_s10_e8,tc,0,8172.06,864,8042.62
ekey_rd_s10_e8,tc,0,8219.79,864,8077.54
ekey_rd_s10_e8,tc,0,8199.15,864,8071.29
ekey_rd_s10_e8,tc,0,8208.34,864,8020.65
ekey_rd_s10_e8,tc,0,8971.99,864,9849.36
ekey_rd_s10_e8,tc,0,8305.39,864,8175.92
ekey_rd_s10_e8,tc,0,8296.34,864,8146.45
ekey_rd_s10_e8,tc,0,8290.99,864,8194.66
ekey_rd_s10_e8,tc,0,8288.04,864,8165.17
ekey_rd_s10_e8,tc,0,8332.3,864,8192.12
ekey_rd_s10_e8,tc,0,8331.7,864,8196.95
ekey_rd_s10_e8,tc,0,8322.16,864,8172.73
ekey_rd_s10_e8,tc,0,8316.73,864,8203.47
ekey_rd_s10_e8,tc,0,8326.84,864,8196.79
ekey_rd_s10_e8,tc,0,8326.19,864,8168.7
ekey_rd_s10_e8,tc,0,8304.41,864,8221.44
ekey_rd_s10_e8,tc,0,8314.31,864,8142.98
ekey_rd_s10_e8,tc,0,8329.12,864,8220.66
ekey_rd_s10_e8,tc,0,8324.59,864,8195.67
ekey_rd_s10_e8,tc,0,8335.01,864,8267.97
ekey_rd_s10_e8,tc,0,9267.58,864,10148.2
ekey_rd_s10_e8,tc,0,8503.43,864,8374.25
ekey_rd_s10_e8,tc,0,8149.19,864,8231.34
ekey_rd_s10_e8,tc,0,8446.2,864,8020.05
ekey_rd_s10_e8,tc,0,8172.96,864,8193.34
ekey_rd_s10_e8,tc,0,8469.76,864,8116.78
ekey_rd_s10_e8,tc,0,8341.73,864,8401.53
ekey_rd_s10_e8,tc,0,8278.24,864,8064.23
ekey_rd_s10_e8,tc,0,8414.45,864,8310.82
ekey_rd_s10_e8,tc,0,8103.83,864,8125.06
ekey_rd_s10_e8,tc,0,8407.77,864,8432.39
ekey_rd_s10_e8,tc,0,8223.81,864,8093.95
ekey_rd_s10_e8,tc,0,8143.29,864,8428.49
ekey_rd_s10_e8,tc,0,8134.96,864,8037.05
ekey_rd_s10_e8,tc,0,8128.35,864,8018.09
ekey_rd_s10_e8,tc,0,8139.52,864,8044.4
ekey_rd_s10_e8,tc,0,8952.58,864,9818.15
ekey_rd_s10_e8,tc,0,8218.6,864,8235.81
ekey_rd_s10_e8,tc,0,8221.01,864,8106.04
ekey_rd_s10_e8,tc,0,8264.55,864,8198.51
ekey_rd_s10_e8,tc,0,8237.33,864,8123.76
ekey_rd_s10_e8,tc,0,8247.47,864,8123.82
ekey_rd_s10_e8,tc,0,8223.04,864,8059.89
ekey_rd_s10_e8,tc,0,8221.43,864,8091.36
ekey_rd_s10_e8,tc,0,8218.16,864,8139.36
ekey_rd_s10_e8,tc,0,8503.06,864,8115.17
ekey_rd_s10_e8,tc,0,8244.57,864,8222.16
ekey_rd_s10_e8,tc,0,8253.77,864,8136.75
ekey_rd_s10_e8,tc,0,8253.73,864,8107.88
ekey_rd_s10_e8,tc,0,8226.84,864,8044.98
ekey_rd_s10_e8,tc,0,8208.43,864,8109.67
ekey_rd_s10_e8,tc,0,8230.84,864,8044.6
ekey_rd_s10_e8,tc,0,9353.12,864,9961.93
ekey_rd_s10_e8,tc,0,8591.36,864,8342.5
ekey_rd_s10_e8,tc,0,8608.89,864,8355.62
ekey_rd_s10_e8,tc,0,8651.66,864,8400.24
ekey_rd_s10_e8,tc,0,8642.61,864,8382.15
ekey_rd_s10_e8,tc,0,8638.78,864,8397.27
ekey_rd_s10_e8,tc,0,8626.72,864,8343.32
ekey_rd_s10_e8,tc,0,8612.67,864,8434.04
ekey_rd_s10_e8,tc,0,8588.49,864,8419.6
ekey_rd_s10_e8,tc,0,8654.73,864,8309.03
ekey_rd_s10_e8,tc,0,8631.59,864,8375.7
ekey_rd_s10_e8,tc,0,8622.47,864,8325.82
ekey_rd_s10_e8,tc,0,8595.83,864,8309.15
ekey_rd_s10_e8,tc,0,8625.78,864,8371.02
ekey_rd_s10_e8,tc,0,8567.82,864,8387.52
ekey_rd_s10_e8,tc,0,8594.38,864,8362.94
ekey_rd_s10_e8,tc,0,8986.08,864,9792.91
ekey_rd_s10_e8,tc,0,8242.82,864,8110.52
ekey_rd_s10_e8,tc,0,8243.44,864,8132.45
ekey_rd_s10_e8,tc,0,8307.88,864,8121.47
ekey_rd_s10_e8,tc,0,8210,864,8170.16
ekey_rd_s10_e8,tc,0,8169.51,864,8070.63
ekey_rd_s10_e8,tc,0,8276.17,864,8183.28
ekey_rd_s10_e8,tc,0,8285.02,864,8161.57
ekey_rd_s10_e8,tc,0,8258.87,864,8104.37
ekey_rd_s10_e8,tc,0,8315.28,864,8116.29
ekey_rd_s10_e8,tc,0,8223.04,864,8130.71
ekey_rd_s10_e8,tc,0,8250.39,864,8109.03
ekey_rd_s10_e8,tc,0,8264.41,864,8152.83
ekey_rd_s10_e8,tc,0,8262.17,864,8126.55
ekey_rd_s10_e8,tc,0,8268.5,864,8127.15
ekey_rd_s10_e8,tc,0,8304.22,864,8129.04
ekey_rd_s10_e8,tc,0,8966.86,864,9886.45
ekey_rd_s10_e8,tc,0,8258.89,864,8119.68
ekey_rd_s10_e8,tc,0,8259.25,864,8138.26
ekey_rd_s10_e8,tc,0,8368.88,864,8173.8
ekey_rd_s10_e8,tc,0,8297.52,864,8335.18
ekey_rd_s10_e8,tc,0,8283.02,864,8159.29
ekey_rd_s10_e8,tc,0,8300.89,864,8208.32
ekey_rd_s10_e8,tc,0,8257.56,864,8199.83
ekey_rd_s10_e8,tc,0,8575.34,864,8159.65
ekey_rd_s10_e8,tc,0,8296.14,864,8174.11
ekey_rd_s10_e8,tc,0,8245.85,864,8151.13
ekey_rd_s10_e8,tc,0,8339.71,864,8160.03
ekey_rd_s10_e8,tc,0,8263.07,864,8190.88
ekey_rd_s10_e8,tc,0,8285.79,864,8231.36
ekey_rd_s10_e8,tc,0,8257.2,864,8139.63
ekey_rd_s10_e8,tc,0,8259.34,864,8293.34
ekey_rd_s10_e8,tc,0,8857.95,864,9680.47
ekey_rd_s10_e8,tc,0,8196.63,864,8070.99
ekey_rd_s10_e8,tc,0,8185.76,864,8071.41
ekey_rd_s10_e8,tc,0,8177.53,864,8066.98
ekey_rd_s10_e8,tc,0,8173.77,864,8001.53
ekey_rd_s10_e8,tc,0,8148.65,864,8075.01
ekey_rd_s10_e8,tc,0,8174.76,864,8039.31
ekey_rd_s10_e8,tc,0,8169.35,864,8115.97
ekey_rd_s10_e8,tc,0,8187.38,864,8038.09
ekey_rd_s10_e8,tc,0,8163,864,8081.02
ekey_rd_s10_e8,tc,0,8197.07,864,8028.44
ekey_rd_s10_e8,tc,0,8188.04,864,8031.7
ekey_rd_s10_e8,tc,0,8177.29,864,8056.27
ekey_rd_s10_e8,tc,0,8166,864,8048.19
ekey_rd_s10_e8,tc,0,8149.46,864,8046.11
ekey_rd_s10_e8,tc,0,8165.66,864,8071.59
ekey_rd_s10_e8,tc,3346,217079,11375,138055
ekey_rd_s10_e8,tc,3346,183333,11375,262378
ekey_rd_s10_e8,tc,3346,140613,11375,131018
ekey_rd_s10_e8,tc,3346,140830,11375,131110
ekey_rd_s10_e8,tc,3346,140611,11375,130843
ekey_rd_s10_e8,tc,3346,140487,11375,130951
ekey_rd_s10_e8,tc,3346,140626,11375,130948
ekey_rd_s10_e8,tc,3346,140561,11375,131024
ekey_rd_s10_e8,tc,3346,140518,11375,130956
ekey_rd_s10_e8,tc,3346,140652,11375,130881
ekey_rd_s10_e8,tc,3346,140715,11375,130910
ekey_rd_s10_e8,tc,3346,140586,11375,130880
ekey_rd_s10_e8,tc,3346,140573,11375,130932
ekey_rd_s10_e8,tc,3346,140524,11375,130933
ekey_rd_s10_e8,tc,3346,140643,11375,130883
ekey_rd_s10_e8,tc,3346,140585,11375,130943
ekey_rd_s10_e8,tc,3346,141902,11375,133427
ekey_rd_s10_e8,tc,3346,141822,11375,129674
ekey_rd_s10_e8,tc,3346,141980,11375,129563
ekey_rd_s10_e8,tc,3346,141918,11375,129548
ekey_rd_s10_e8,tc,3346,141926,11375,129519
ekey_rd_s10_e8,tc,3346,141872,11375,129464
ekey_rd_s10_e8,tc,3346,141969,11375,129479
ekey_rd_s10_e8,tc,3346,141929,11375,129484
ekey_rd_s10_e8,tc,3346,141901,11375,129629
ekey_rd_s10_e8,tc,3346,142253,11375,129449
ekey_rd_s10_e8,tc,3346,142019,11375,130557
ekey_rd_s10_e8,tc,3346,142013,11375,129513
ekey_rd_s10_e8,tc,3346,141876,11375,129744
ekey_rd_s10_e8,tc,3346,142968,11375,129589
ekey_rd_s10_e8,tc,3346,142068,11375,137858
ekey_rd_s10_e8,tc,3346,186332,11375,129651
ekey_rd_s10_e8,tc,3346,144630,11375,139288
ekey_rd_s10_e8,tc,3346,144448,11375,136939
ekey_rd_s10_e8,tc,3346,144604,11375,137062
ekey_rd_s10_e8,tc,3346,144443,11375,136994
ekey_rd_s10_e8,tc,3346,144645,11375,136999
ekey_rd_s10_e8,tc,3346,144360,11375,136940
ekey_rd_s10_e8,tc,3346,144599,11375,136994
ekey_rd_s10_e8,tc,3346,144815,11375,137242
ekey_rd_s10_e8,tc,3346,144383,11375,137012
ekey_rd_s10_e8,tc,3346,144587,11375,137246
ekey_rd_s10_e8,tc,3346,144373,11375,137013
ekey_rd_s10_e8,tc,3346,144560,11375,137010
ekey_rd_s10_e8,tc,3346,144469,11375,136940
ekey_rd_s10_e8,tc,3346,144592,11375,136993
ekey_rd_s10_e8,tc,3346,144465,11375,136863
ekey_rd_s10_e8,tc,3346,144379,11375,136981
ekey_rd_s10_e8,tc,3346,140906,11375,132993
ekey_rd_s10_e8,tc,3346,140401,11375,130566
ekey_rd_s10_e8,tc,3346,140531,11375,130391
ekey_rd_s10_e8,tc,3346,140726,11375,130613
ekey_rd_s10_e8,tc,3346,140434,11375,130367
ekey_rd_s10_e8,tc,3346,146574,11375,130556
ekey_rd_s10_e8,tc,3346,142185,11375,130188
ekey_rd_s10_e8,tc,3346,140141,11375,130396
ekey_rd_s10_e8,tc,3346,142682,11375,130267
ekey_rd_s10_e8,tc,3346,143411,11375,133046
ekey_rd_s10_e8,tc,3346,148278,11375,135627
ekey_rd_s10_e8,tc,3346,141724,11375,131610
ekey_rd_s10_e8,tc,3346,140309,11375,131116
ekey_rd_s10_e8,tc,3346,140738,11375,130582
ekey_rd_s10_e8,tc,3346,140585,11375,130547
ekey_rd_s10_e8,tc,3346,140427,11375,130445
ekey_rd_s10_e8,tc,3346,139830,11375,133101
ekey_rd_s10_e8,tc,3346,140436,11375,130099
ekey_rd_s10_e8,tc,3346,140262,11375,130859
ekey_rd_s10_e8,tc,3346,140600,11375,129908
ekey_rd_s10_e8,tc,3346,140562,11375,131114
ekey_rd_s10_e8,tc,3346,139445,11375,129818
ekey_rd_s10_e8,tc,3346,140856,11375,131180
ekey_rd_s10_e8,tc,3346,139924,11375,130837
ekey_rd_s10_e8,tc,3346,139788,11375,130103
ekey_rd_s10_e8,tc,3346,140706,11375,130997
ekey_rd_s10_e8,tc,3346,140052,11375,130139
ekey_rd_s10_e8,tc,3346,140676,11375,130977
ekey_rd_s10_e8,tc,3346,139512,11375,129980
ekey_rd_s10_e8,tc,3346,141040,11375,130779
ekey_rd_s10_e8,tc,3346,139484,11375,130421
ekey_rd_s10_e8,tc,3346,140666,11375,130909
ekey_rd_s10_e8,tc,3346,142733,11375,145383
ekey_rd_s10_e8,tc,3346,142453,11375,133398
ekey_rd_s10_e8,tc,3346,142461,11375,133127
ekey_rd_s10_e8,tc,3346,142447,11375,133216
ekey_rd_s10_e8,tc,3346,142605,11375,134347
ekey_rd_s10_e8,tc,3346,142485,11375,133358
ekey_rd_s10_e8,tc,3346,142370,11375,133226
ekey_rd_s10_e8,tc,3346,142440,11375,133481
ekey_rd_s10_e8,tc,3346,142502,11375,133226
ekey_rd_s10_e8,tc,3346,147826,11375,148869
ekey_rd_s10_e8,tc,3346,146573,11375,184087
ekey_rd_s10_e8,tc,3346,144778,11375,135034
ekey_rd_s10_e8,tc,3346,144749,11375,135132
ekey_rd_s10_e8,tc,3346,144849,11375,134781
ekey_rd_s10_e8,tc,3346,145482,11375,135537
ekey_rd_s10_e8,tc,3346,144920,11375,134948
ekey_rd_s10_e8,tc,3346,142621,11375,132829
ekey_rd_s10_e8,tc,3346,142354,11375,130665
ekey_rd_s10_e8,tc,3346,142657,11375,130448
ekey_rd_s10_e8,tc,3346,142419,11375,130544
ekey_rd_s10_e8,tc,3346,142767,11375,130494
ekey_rd_s10_e8,tc,3346,142412,11375,130392
ekey_rd_s10_e8,tc,3346,142469,11375,130529
ekey_rd_s10_e8,tc,3346,142435,11375,130460
ekey_rd_s10_e8,tc,3346,142570,11375,130618
ekey_rd_s10_e8,tc,3346,142519,11375,130506
ekey_rd_s10_e8,tc,3346,142570,11375,130599
ekey_rd_s10_e8,tc,3346,142535,11375,130597
ekey_rd_s10_e8,tc,3346,142493,11375,130590
ekey_rd_s10_e8,tc,3346,142648,11375,130487
ekey_rd_s10_e8,tc,3346,142659,11375,130707
ekey_rd_s10_e8,tc,3346,142450,11375,130446
ekey_rd_s10_e8,tc,3346,141249,11375,134186
ekey_rd_s10_e8,tc,3346,141070,11375,131763
ekey_rd_s10_e8,tc,3346,141105,11375,131613
ekey_rd_s10_e8,tc,3346,141389,11375,131831
ekey_rd_s10_e8,tc,3346,141221,11375,131871
ekey_rd_s10_e8,tc,3346,141041,11375,131857
ekey_rd_s10_e8,tc,3346,141128,11375,131810
ekey_rd_s10_e8,tc,3346,140964,11375,131913
ekey_rd_s10_e8,tc,3346,141247,11375,131750
ekey_rd_s10_e8,tc,3346,141201,11375,131746
ekey_rd_s10_e8,tc,3346,141114,11375,131679
ekey_rd_s10_e8,tc,3346,140978,11375,131748
ekey_rd_s10_e8,tc,3346,141113,11375,132088
ekey_rd_s10_e8,tc,3346,141134,11375,131680
ekey_rd_s10_e8,tc,3346,141137,11375,131806
ekey_rd_s10_e8,tc,3346,141133,11375,131653
ekey_rd_s10_e8,tc,783,16763.8,864,10442.9
ekey_rd_s10_e8,tc,783,15945.4,864,8786.31
ekey_rd_s10_e8,tc,783,15819.5,864,8706.19
ekey_rd_s10_e8,tc,783,15841.4,864,8709
ekey_rd_s10_e8,tc,783,15822,864,8734.96
ekey_rd_s10_e8,tc,783,15787.5,864,8716.08
ekey_rd_s10_e8,tc,783,15802.9,864,8707.79
ekey_rd_s10_e8,tc,783,15882.1,864,8660.13
ekey_rd_s10_e8,tc,783,15881.2,864,8713.72
ekey_rd_s10_e8,tc,783,15841.3,864,8801.63
ekey_rd_s10_e8,tc,783,15865.5,864,8721.46
ekey_rd_s10_e8,tc,783,15888.4,864,8796.37
ekey_rd_s10_e8,tc,783,15798,864,8756.86
ekey_rd_s10_e8,tc,783,15874.4,864,8807.91
ekey_rd_s10_e8,tc,783,15899.4,864,8823.8
ekey_rd_s10_e8,tc,783,15829.7,864,8723.64
ekey_rd_s10_e8,tc,783,17345.2,864,10820.1
ekey_rd_s10_e8,tc,783,16333.5,864,9071.51
ekey_rd_s10_e8,tc,783,16277.7,864,9081.28
ekey_rd_s10_e8,tc,783,16341.2,864,9064.79
ekey_rd_s10_e8,tc,783,16318,864,9115.03
ekey_rd_s10_e8,tc,783,16217.6,864,9073.08
ekey_rd_s10_e8,tc,783,16264.1,864,9114.46
ekey_rd_s10_e8,tc,783,16214.9,864,9072.81
ekey_rd_s10_e8,tc,783,16228.8,864,9061.43
ekey_rd_s10_e8,tc,783,16311.3,864,9135.8
ekey_rd_s10_e8,tc,783,16327.3,864,9052.48
ekey_rd_s10_e8,tc,783,16234.4,864,9191.18
ekey_rd_s10_e8,tc,783,16329.8,864,9115.1
ekey_rd_s10_e8,tc,783,16309.9,864,9123.83
ekey_rd_s10_e8,tc,783,16307.1,864,9076.12
ekey_rd_s10_e8,tc,783,16211.5,864,9127.39
ekey_rd_s10_e8,tc,783,16731.5,864,10428.9
ekey_rd_s10_e8,tc,783,15894.2,864,8746.44
ekey_rd_s10_e8,tc,783,15901.1,864,8706.42
ekey_rd_s10_e8,tc,783,15939.6,864,8663.34
ekey_rd_s10_e8,tc,783,15950.5,864,8739.99
ekey_rd_s10_e8,tc,783,16010.6,864,8686.96
ekey_rd_s10_e8,tc,783,15874.1,864,8681.59
ekey_rd_s10_e8,tc,783,15896.7,864,8702.08
ekey_rd_s10_e8,tc,783,15829.3,864,8697.94
ekey_rd_s10_e8,tc,783,15966.4,864,8676.58
ekey_rd_s10_e8,tc,783,15976.9,864,8784.4
ekey_rd_s10_e8,tc,783,16038.1,864,8680.36
ekey_rd_s10_e8,tc,783,15973.8,864,8700.51
ekey_rd_s10_e8,tc,783,15985.2,864,8674.4
ekey_rd_s10_e8,tc,783,15930.3,864,8768.87
ekey_rd_s10_e8,tc,783,15932.4,864,8711.2
ekey_rd_s10_e8,tc,783,16730.6,864,10399
ekey_rd_s10_e8,tc,783,16028.5,864,8742.05
ekey_rd_s10_e8,tc,783,15795.9,864,8715.94
ekey_rd_s10_e8,tc,783,15776.6,864,8638.72
ekey_rd_s10_e8,tc,783,15820.5,864,8607.8
ekey_rd_s10_e8,tc,783,15763.6,864,8634.24
ekey_rd_s10_e8,tc,783,15863.9,864,8681.63
ekey_rd_s10_e8,tc,783,15925.2,864,8664.89
ekey_rd_s10_e8,tc,783,15823,864,8697.51
ekey_rd_s10_e8,tc,783,15858,864,8656.46
ekey_rd_s10_e8,tc,783,15848.8,864,8660.18
ekey_rd_s10_e8,tc,783,15898.3,864,8677.11
ekey_rd_s10_e8,tc,783,15933.9,864,8649.66
ekey_rd_s10_e8,tc,783,15880.5,864,8652.46
ekey_rd_s10_e8,tc,783,15898.5,864,8649.35
ekey_rd_s10_e8,tc,783,15939.5,864,8667.74
ekey_rd_s10_e8,tc,783,16933.8,864,10405.3
ekey_rd_s10_e8,tc,783,15952,864,8736.92
ekey_rd_s10_e8,tc,783,16016.9,864,8653.42
ekey_rd_s10_e8,tc,783,16399.9,864,8788.01
ekey_rd_s10_e8,tc,783,16177.4,864,8655.6
ekey_rd_s10_e8,tc,783,16106,864,8753.21
ekey_rd_s10_e8,tc,783,16477.1,864,8763.17
ekey_rd_s10_e8,tc,783,16156.4,864,8760.45
ekey_rd_s10_e8,tc,783,15992,864,8724.12
ekey_rd_s10_e8,tc,783,16034.2,864,8720
ekey_rd_s10_e8,tc,783,16058.5,864,8698.55
ekey_rd_s10_e8,tc,783,16086.4,864,8686.79
ekey_rd_s10_e8,tc,783,16111,864,8755.84
ekey_rd_s10_e8,tc,783,16073.1,864,8663.66
ekey_rd_s10_e8,tc,783,16086.8,864,8708.7
ekey_rd_s10_e8,tc,783,16033.4,864,8697.39
ekey_rd_s10_e8,tc,783,17087.6,864,10572.5
ekey_rd_s10_e8,tc,783,16206.1,864,8792.37
ekey_rd_s10_e8,tc,783,16220.7,864,8799.89
ekey_rd_s10_e8,tc,783,16246.1,864,8839.26
ekey_rd_s10_e8,tc,783,16368.9,864,8824.63
ekey_rd_s10_e8,tc,783,16231.2,864,8821.08
ekey_rd_s10_e8,tc,783,16271.1,864,8820.13
ekey_rd_s10_e8,tc,783,16245,864,8825.07
ekey_rd_s10_e8,tc,783,16262.9,864,8794.78
ekey_rd_s10_e8,tc,783,16242.6,864,8842.34
ekey_rd_s10_e8,tc,783,16276,864,8817.12
ekey_rd_s10_e8,tc,783,16202.1,864,8801.62
ekey_rd_s10_e8,tc,783,16257,864,8848.05
ekey_rd_s10_e8,tc,783,16323.7,864,8882.48
ekey_rd_s10_e8,tc,783,16262.9,864,8838.45
ekey_rd_s10_e8,tc,783,16244.5,864,8825.56
ekey_rd_s10_e8,tc,783,17645.8,864,10534.4
ekey_rd_s10_e8,tc,783,16747.6,864,8709.4
ekey_rd_s10_e8,tc,783,16808.9,864,8749.95
ekey_rd_s10_e8,tc,783,16754,864,8729.04
ekey_rd_s10_e8,tc,783,16756.3,864,8728.87
ekey_rd_s10_e8,tc,783,16746.9,864,8714.98
ekey_rd_s10_e8,tc,783,16829.8,864,8756.79
ekey_rd_s10_e8,tc,783,16849.4,864,8787.57
ekey_rd_s10_e8,tc,783,16560,864,8806.75
ekey_rd_s10_e8,tc,783,17005.2,864,8309.11
ekey_rd_s10_e8,tc,783,16743,864,8285.17
ekey_rd_s10_e8,tc,783,16681.6,864,8136.52
ekey_rd_s10_e8,tc,783,16643.7,864,8164.65
ekey_rd_s10_e8,tc,783,16754.7,864,8155.42
ekey_rd_s10_e8,tc,783,16786.3,864,8729.84
ekey_rd_s10_e8,tc,783,16763.2,864,8807.28
ekey_rd_s10_e8,tc,783,16895.3,864,10470.2
ekey_rd_s10_e8,tc,783,15968.2,864,8713.62
ekey_rd_s10_e8,tc,783,16010.3,864,8721.28
ekey_rd_s10_e8,tc,783,16047.4,864,8747.64
ekey_rd_s10_e8,tc,783,16071.7,864,8417.49
ekey_rd_s10_e8,tc,783,16044.7,864,8345.91
ekey_rd_s10_e8,tc,783,16224.6,864,8356.47
ekey_rd_s10_e8,tc,783,16180.5,864,8400.94
ekey_rd_s10_e8,tc,783,16221.8,864,8505.09
ekey_rd_s10_e8,tc,783,15943.6,864,8277.26
ekey_rd_s10_e8,tc,783,16192.2,864,8397.6
ekey_rd_s10_e8,tc,783,16135.5,864,8541.03
ekey_rd_s10_e8,tc,783,16280.4,864,8440.31
ekey_rd_s10_e8,tc,783,16176.1,864,8405.41
ekey_rd_s10_e8,tc,783,17319.3,864,8331.86
ekey_rd_s10_e8,tc,783,16127.9,864,12858.2
ekey_rd_s10_e8,tc,783,16505.4,864,10565.6
ekey_rd_s10_e8,tc,783,15705.9,864,8576.77
ekey_rd_s10_e8,tc,783,15794.5,864,8580.34
ekey_rd_s10_e8,tc,783,16352.4,864,8958.87
ekey_rd_s10_e8,tc,783,16262.6,864,8904.57
ekey_rd_s10_e8,tc,783,16349.9,864,8864.65
ekey_rd_s10_e8,tc,783,16309.6,864,8898.57
ekey_rd_s10_e8,tc,783,16286.9,864,8888.29
ekey_rd_s10_e8,tc,783,16358.5,864,8835.08
ekey_rd_s10_e8,tc,783,16267.6,864,8879.06
ekey_rd_s10_e8,tc,783,16316.4,864,8896.57
ekey_rd_s10_e8,tc,783,16273.3,864,8890.27
ekey_rd_s10_e8,tc,783,16360.1,864,8908.51
ekey_rd_s10_e8,tc,783,16111.5,864,8877.67
ekey_rd_s10_e8,tc,783,16835.9,864,8821.87
ekey_rd_s10_e8,tc,783,16121.1,864,9462.07
ekey_rd_s10_e8,tc,783,17456.2,864,11106.8
ekey_rd_s10_e8,tc,783,16314.4,864,9036.94
ekey_rd_s10_e8,tc,783,16349.5,864,9076.76
ekey_rd_s10_e8,tc,783,16402.7,864,9085.89
ekey_rd_s10_e8,tc,783,16343.1,864,9056.03
ekey_rd_s10_e8,tc,783,16334.2,864,9409.71
ekey_rd_s10_e8,tc,783,16348.4,864,9038.97
ekey_rd_s10_e8,tc,783,16334,864,9009.78
ekey_rd_s10_e8,tc,783,16330.5,864,9061.65
ekey_rd_s10_e8,tc,783,16227.3,864,9020.15
ekey_rd_s10_e8,tc,783,16335.8,864,9029.89
ekey_rd_s10_e8,tc,783,16385.7,864,9073.83
ekey_rd_s10_e8,tc,783,16316.2,864,8992.12
ekey_rd_s10_e8,tc,783,16430.1,864,9009.07
ekey_rd_s10_e8,tc,783,16392.3,864,9049.82
ekey_rd_s10_e8,tc,783,16265.2,864,9027.91
ekey_rd_s10_e8,tc,783,17058.2,864,10852.4
ekey_rd_s10_e8,tc,783,15623.1,864,8112.35
ekey_rd_s10_e8,tc,783,15630.7,864,8140.43
ekey_rd_s10_e8,tc,783,15595.8,864,8126.97
ekey_rd_s10_e8,tc,783,15623,864,8123.14
ekey_rd_s10_e8,tc,783,15678.6,864,8138.1
ekey_rd_s10_e8,tc,783,15673.5,864,8119.21
ekey_rd_s10_e8,tc,783,15715.9,864,8142.86
ekey_rd_s10_e8,tc,783,15951.1,864,8213.71
ekey_rd_s10_e8,tc,783,15685.8,864,8160.59
ekey_rd_s10_e8,tc,783,15652.1,864,8114.69
ekey_rd_s10_e8,tc,783,15663,864,8211.57
ekey_rd_s10_e8,tc,783,15644.5,864,8153.43
ekey_rd_s10_e8,tc,783,15691.2,864,8128.34
ekey_rd_s10_e8,tc,783,15727.4,864,8105.38
ekey_rd_s10_e8,tc,783,15674,864,8145.03
ekey_rd_s10_e8,tc,783,17263.6,864,13339
ekey_rd_s10_e8,tc,783,15508.8,864,8086.95
ekey_rd_s10_e8,tc,783,15606.1,864,8069.7
ekey_rd_s10_e8,tc,783,15654.3,864,8092.34
ekey_rd_s10_e8,tc,783,21344.9,864,9574.17
ekey_rd_s10_e8,tc,783,20215.9,864,11366.3
ekey_rd_s10_e8,tc,783,20599.5,864,8439.66
ekey_rd_s10_e8,tc,783,19685.9,864,8093.96
ekey_rd_s10_e8,tc,783,19333.3,864,11390.8
ekey_rd_s10_e8,tc,783,21027.7,864,10609.9
ekey_rd_s10_e8,tc,783,20972.4,864,10110.7
ekey_rd_s10_e8,tc,783,21033.9,864,10537.8
ekey_rd_s10_e8,tc,783,20292.2,864,10294.2
ekey_rd_s10_e8,tc,783,19594.6,864,8082.1
ekey_rd_s10_e8,tc,783,20663.1,864,11014.4
ekey_rd_s10_e8,tc,783,20707.1,864,10724.2
ekey_rd_s10_e8,tc,783,16828.2,864,14657.5
ekey_rd_s10_e8,tc,783,15347.1,864,8132.55
ekey_rd_s10_e8,tc,783,15270.9,864,8086.84
ekey_rd_s10_e8,tc,783,15382.3,864,8170.76
ekey_rd_s10_e8,tc,783,15410.6,864,8136.55
ekey_rd_s10_e8,tc,783,15370.4,864,8119.39
ekey_rd_s10_e8,tc,783,15336.6,864,8126.21
ekey_rd_s10_e8,tc,783,15396.9,864,8155.8
ekey_rd_s10_e8,tc,783,15530.4,864,8131.97
ekey_rd_s10_e8,tc,783,15632.8,864,8173.93
ekey_rd_s10_e8,tc,783,15354.3,864,8123.21
ekey_rd_s10_e8,tc,783,15391.5,864,8142
ekey_rd_s10_e8,tc,783,15348.4,864,8118.5
ekey_rd_s10_e8,tc,783,15372.4,864,8111.46
ekey_rd_s10_e8,tc,783,15392.7,864,8141.6
ekey_rd_s10_e8,tc,783,15330.2,864,8127.58
ekey_rd_s10_e8,tc,783,18122.8,864,12879.8
ekey_rd_s10_e8,tc,783,16424.4,864,8141.76
ekey_rd_s10_e8,tc,783,16466.7,864,8111.01
ekey_rd_s10_e8,tc,783,16388.3,864,8060.65
ekey_rd_s10_e8,tc,783,16358.1,864,8048.63
ekey_rd_s10_e8,tc,783,16459.4,864,8082.22
ekey_rd_s10_e8,tc,783,16334.7,864,8055.41
ekey_rd_s10_e8,tc,783,16422.1,864,8134.54
ekey_rd_s10_e8,tc,783,16426.5,864,8127.77
ekey_rd_s10_e8,tc,783,16344,864,8060.18
ekey_rd_s10_e8,tc,783,16353.2,864,8066.6
ekey_rd_s10_e8,tc,783,16349.4,864,8041.51
ekey_rd_s10_e8,tc,783,16315,864,8058.73
ekey_rd_s10_e8,tc,783,21918.3,864,9110.9
ekey_rd_s10_e8,tc,783,19882.5,864,8377.88
ekey_rd_s10_e8,tc,783,19457.5,864,8078.92
ekey_rd_s10_e8,tc,783,16081.3,864,12358.7
ekey_rd_s10_e8,tc,783,15291.4,864,8107.57
ekey_rd_s10_e8,tc,783,15282.2,864,8067.47
ekey_rd_s10_e8,tc,783,15252,864,8067.72
ekey_rd_s10_e8,tc,783,15237.9,864,8046.74
ekey_rd_s10_e8,tc,783,15242.6,864,8094.36
ekey_rd_s10_e8,tc,783,15252.1,864,8081.3
ekey_rd_s10_e8,tc,783,15294,864,8099.76
ekey_rd_s10_e8,tc,783,15246.2,864,8029.77
ekey_rd_s10_e8,tc,783,15307.2,864,8072.03
ekey_rd_s10_e8,tc,783,15323.8,864,8116.86
ekey_rd_s10_e8,tc,783,15320.1,864,8069.63
ekey_rd_s10_e8,tc,783,15304.2,864,8040.28
ekey_rd_s10_e8,tc,783,15263.1,864,8077.98
ekey_rd_s10_e8,tc,783,15284.2,864,8082.5
ekey_rd_s10_e8,tc,783,15233.8,864,8074.54
ekey_rd_s10_e8,tc,783,17635.9,864,11170.6
ekey_rd_s10_e8,tc,783,15665.5,864,8206.78
ekey_rd_s10_e8,tc,783,15655.5,864,8179.46
ekey_rd_s10_e8,tc,783,15718.4,864,8195.5
ekey_rd_s10_e8,tc,783,15663.1,864,8201.44
ekey_rd_s10_e8,tc,783,15624.8,864,8186.94
ekey_rd_s10_e8,tc,783,15716.9,864,8236.76
ekey_rd_s10_e8,tc,783,15696.5,864,8181.39
ekey_rd_s10_e8,tc,783,15741,864,8211.36
ekey_rd_s10_e8,tc,783,15674.2,864,8209.18
ekey_rd_s10_e8,tc,783,15640.3,864,8200.83
ekey_rd_s10_e8,tc,783,15716,864,8180.28
ekey_rd_s10_e8,tc,783,15659.2,864,8238.53
ekey_rd_s10_e8,tc,783,15681.6,864,8195.08
ekey_rd_s10_e8,tc,783,15693.6,864,8188.54
ekey_rd_s10_e8,tc,783,15667.4,864,8209.66
ekey_rd_s10_e8,tc,3346,58693.7,11369,125710
ekey_rd_s10_e8,tc,3346,57801.4,11369,128167
ekey_rd_s10_e8,tc,3346,57873.9,11369,128207
ekey_rd_s10_e8,tc,3346,55438.7,11369,125478
ekey_rd_s10_e8,tc,3346,55439.1,11369,122737
ekey_rd_s10_e8,tc,3346,55351.4,11369,122821
ekey_rd_s10_e8,tc,3346,55706.4,11369,122889
ekey_rd_s10_e8,tc,3346,55363,11369,122759
ekey_rd_s10_e8,tc,3346,55460.2,11369,122749
ekey_rd_s10_e8,tc,3346,55401.3,11369,122712
ekey_rd_s10_e8,tc,3346,55369.8,11369,122757
ekey_rd_s10_e8,tc,3346,55438.2,11369,122784
ekey_rd_s10_e8,tc,3346,55339.9,11369,122755
ekey_rd_s10_e8,tc,3346,55336,11369,122898
ekey_rd_s10_e8,tc,3346,55380.5,11369,122898
ekey_rd_s10_e8,tc,3346,55427.9,11369,122761
ekey_rd_s10_e8,tc,3346,58358.1,11369,134722
ekey_rd_s10_e8,tc,3346,115173,11369,212945
ekey_rd_s10_e8,tc,3346,57339.6,11369,233583
ekey_rd_s10_e8,tc,3346,57759,11369,128477
ekey_rd_s10_e8,tc,3346,57682.6,11369,128500
ekey_rd_s10_e8,tc,3346,57362,11369,128364
ekey_rd_s10_e8,tc,3346,57531.7,11369,128478
ekey_rd_s10_e8,tc,3346,57602.4,11369,128477
ekey_rd_s10_e8,tc,3346,57531.3,11369,128458
ekey_rd_s10_e8,tc,3346,57573.4,11369,128649
ekey_rd_s10_e8,tc,3346,57348.4,11369,128621
ekey_rd_s10_e8,tc,3346,57521.4,11369,128467
ekey_rd_s10_e8,tc,3346,57597,11369,128604
ekey_rd_s10_e8,tc,3346,57364.4,11369,128388
ekey_rd_s10_e8,tc,3346,57514.4,11369,128513
ekey_rd_s10_e8,tc,3346,64931.9,11369,135086
ekey_rd_s10_e8,tc,3346,56859.1,11369,127765
ekey_rd_s10_e8,tc,3346,112410,11369,215569
ekey_rd_s10_e8,tc,3346,55987.3,11369,223453
ekey_rd_s10_e8,tc,3346,55980.2,11369,123757
ekey_rd_s10_e8,tc,3346,55987.6,11369,123963
ekey_rd_s10_e8,tc,3346,56180.4,11369,124220
ekey_rd_s10_e8,tc,3346,56000,11369,123811
ekey_rd_s10_e8,tc,3346,55993.1,11369,123862
ekey_rd_s10_e8,tc,3346,55895.6,11369,123990
ekey_rd_s10_e8,tc,3346,55990.7,11369,123830
ekey_rd_s10_e8,tc,3346,56115.4,11369,123903
ekey_rd_s10_e8,tc,3346,55932,11369,123925
ekey_rd_s10_e8,tc,3346,55983.7,11369,123842
ekey_rd_s10_e8,tc,3346,56039.4,11369,123983
ekey_rd_s10_e8,tc,3346,55981.2,11369,123784
ekey_rd_s10_e8,tc,3346,56513.9,11369,123934
ekey_rd_s10_e8,tc,3346,56841.6,11369,126295
ekey_rd_s10_e8,tc,3346,56006.9,11369,123331
ekey_rd_s10_e8,tc,3346,55983.4,11369,123422
ekey_rd_s10_e8,tc,3346,56021.8,11369,123469
ekey_rd_s10_e8,tc,3346,55979.9,11369,123381
ekey_rd_s10_e8,tc,3346,56126.3,11369,123326
ekey_rd_s10_e8,tc,3346,56004.6,11369,123293
ekey_rd_s10_e8,tc,3346,56016.7,11369,123341
ekey_rd_s10_e8,tc,3346,56200.1,11369,123403
ekey_rd_s10_e8,tc,3346,55920.6,11369,123247
ekey_rd_s10_e8,tc,3346,55967.7,11369,123294
ekey_rd_s10_e8,tc,3346,56075.3,11369,123584
ekey_rd_s10_e8,tc,3346,55988.2,11369,123233
ekey_rd_s10_e8,tc,3346,56055.7,11369,123362
ekey_rd_s10_e8,tc,3346,55981,11369,123454
ekey_rd_s10_e8,tc,3346,55989.8,11369,123267
ekey_rd_s10_e8,tc,3346,56339.2,11369,128206
ekey_rd_s10_e8,tc,3346,111430,11369,244971
ekey_rd_s10_e8,tc,3346,55446.5,11369,195864
ekey_rd_s10_e8,tc,3346,55468.6,11369,123048
ekey_rd_s10_e8,tc,3346,55590.6,11369,123260
ekey_rd_s10_e8,tc,3346,55440.4,11369,123123
ekey_rd_s10_e8,tc,3346,55440.2,11369,122944
ekey_rd_s10_e8,tc,3346,55418.3,11369,123042
ekey_rd_s10_e8,tc,3346,55453.7,11369,123080
ekey_rd_s10_e8,tc,3346,55407.7,11369,122984
ekey_rd_s10_e8,tc,3346,55621.8,11369,123005
ekey_rd_s10_e8,tc,3346,55494.2,11369,123007
ekey_rd_s10_e8,tc,3346,55447.3,11369,122974
ekey_rd_s10_e8,tc,3346,55504.1,11369,123153
ekey_rd_s10_e8,tc,3346,55410.3,11369,122935
ekey_rd_s10_e8,tc,3346,55446.3,11369,122996
ekey_rd_s10_e8,tc,3346,59010.9,11369,132639
ekey_rd_s10_e8,tc,3346,116481,11369,142558
ekey_rd_s10_e8,tc,3346,107169,11369,258384
ekey_rd_s10_e8,tc,3346,58004.2,11369,128860
ekey_rd_s10_e8,tc,3346,58029.9,11369,128735
ekey_rd_s10_e8,tc,3346,58120.6,11369,129083
ekey_rd_s10_e8,tc,3346,58020.7,11369,128701
ekey_rd_s10_e8,tc,3346,58074.2,11369,128763
ekey_rd_s10_e8,tc,3346,58022.6,11369,128858
ekey_rd_s10_e8,tc,3346,58056.6,11369,128745
ekey_rd_s10_e8,tc,3346,58211.2,11369,128739
ekey_rd_s10_e8,tc,3346,58012.3,11369,128744
ekey_rd_s10_e8,tc,3346,58102.1,11369,129060
ekey_rd_s10_e8,tc,3346,116772,11369,153320
ekey_rd_s10_e8,tc,3346,113505,11369,240130
ekey_rd_s10_e8,tc,3346,64760.2,11369,129081
ekey_rd_s10_e8,tc,3346,56550.5,11369,127214
ekey_rd_s10_e8,tc,3346,55691.4,11369,123983
ekey_rd_s10_e8,tc,3346,55827.8,11369,124018
ekey_rd_s10_e8,tc,3346,55677.8,11369,123947
ekey_rd_s10_e8,tc,3346,55711.8,11369,123970
ekey_rd_s10_e8,tc,3346,55718.4,11369,124140
ekey_rd_s10_e8,tc,3346,55978.3,11369,124353
ekey_rd_s10_e8,tc,3346,55754.5,11369,124100
ekey_rd_s10_e8,tc,3346,112416,11369,197265
ekey_rd_s10_e8,tc,3346,55817.7,11369,245499
ekey_rd_s10_e8,tc,3346,55733.1,11369,124172
ekey_rd_s10_e8,tc,3346,55830.7,11369,124045
ekey_rd_s10_e8,tc,3346,55754.9,11369,124172
ekey_rd_s10_e8,tc,3346,55782.6,11369,124238
ekey_rd_s10_e8,tc,3346,55708.6,11369,124134
ekey_rd_s10_e8,tc,3346,55809.6,11369,124184
ekey_rd_s10_e8,tc,3346,56458.6,11369,124832
ekey_rd_s10_e8,tc,3346,55581.6,11369,122847
ekey_rd_s10_e8,tc,3346,55567.8,11369,122779
ekey_rd_s10_e8,tc,3346,55558.5,11369,122903
ekey_rd_s10_e8,tc,3346,55693.6,11369,122757
ekey_rd_s10_e8,tc,3346,55603.8,11369,122823
ekey_rd_s10_e8,tc,3346,55791,11369,122937
ekey_rd_s10_e8,tc,3346,55576.7,11369,122798
ekey_rd_s10_e8,tc,3346,55679.4,11369,122817
ekey_rd_s10_e8,tc,3346,55556.9,11369,122769
ekey_rd_s10_e8,tc,3346,55558,11369,122883
ekey_rd_s10_e8,tc,3346,55684.7,11369,122881
ekey_rd_s10_e8,tc,3346,55582.3,11369,122816
ekey_rd_s10_e8,tc,3346,55608.3,11369,122823
ekey_rd_s10_e8,tc,3346,55620.9,11369,122953
ekey_rd_s10_e8,tc,3346,55589.5,11369,122835
